{"type": "FeatureCollection", "id": "http://hadrianswall.squirrel.link/data/CoastalSite_collection", "name": "CoastalSite Instances Collection", "features": [{"type": "Feature", "id": "http://hadrianswall.squirrel.link/data/site/15", "name": "Tower 13b (Wolsty South) (15)", "dateprops": [], "properties": {}, "geometry": {"type": "Point", "coordinates": [-3.408287668995936, 54.83802937825477], "crs": "4326"}}, {"type": "Feature", "id": "http://hadrianswall.squirrel.link/data/site/22", "name": "Tower 21b (Brownrigg North) (22)", "dateprops": [], "properties": {}, "geometry": {"type": "Point", "coordinates": [-3.460249151253318, 54.738907101246674], "crs": "4326"}}, {"type": "Feature", "id": "http://hadrianswall.squirrel.link/data/site/18", "name": "Milefortlet 15a (Bank Hill) (18)", "dateprops": [], "properties": {}, "geometry": {"type": "Point", "coordinates": [-3.425434491401715, 54.81795946784257], "crs": "4326"}}, {"type": "Feature", "id": "http://hadrianswall.squirrel.link/data/site/11", "name": "Milefortlet 12 (Blitterlees) (11)", "dateprops": [], "properties": {}, "geometry": {"type": "Point", "coordinates": [-3.39712533311605, 54.85979376258588], "crs": "4326"}}, {"type": "Feature", "id": "http://hadrianswall.squirrel.link/data/site/25", "name": "Tower 25a (Risehow) (25)", "dateprops": [], "properties": {}, "geometry": {"type": "Point", "coordinates": [-3.511837211946502, 54.70073848455371], "crs": "4326"}}, {"type": "Feature", "id": "http://hadrianswall.squirrel.link/data/site/12", "name": "Tower 12a (Blitterlees West) (12)", "dateprops": [], "properties": {}, "geometry": {"type": "Point", "coordinates": [-3.399361653265886, 54.85581417685867], "crs": "4326"}}, {"type": "Feature", "id": "http://hadrianswall.squirrel.link/data/site/13", "name": "Tower 12b (Blitterlees South) (13)", "dateprops": [], "properties": {}, "geometry": {"type": "Point", "coordinates": [-3.401905025502421, 54.8513079838162], "crs": "4326"}}, {"type": "Feature", "id": "http://hadrianswall.squirrel.link/data/site/2", "name": "Tower 2b (Campfield) (2)", "dateprops": [], "properties": {}, "geometry": {"type": "Point", "coordinates": [-3.265304424578558, 54.93514439155905], "crs": "4326"}}, {"type": "Feature", "id": "http://hadrianswall.squirrel.link/data/site/6", "name": "Milefortlet 4 (Herd Hill) (6)", "dateprops": [], "properties": {}, "geometry": {"type": "Point", "coordinates": [-3.289535044125926, 54.92623232387374], "crs": "4326"}}, {"type": "Feature", "id": "http://hadrianswall.squirrel.link/data/site/20", "name": "Tower 20b (Swarthy Hill North) (20)", "dateprops": [], "properties": {}, "geometry": {"type": "Point", "coordinates": [-3.446023073076322, 54.74980487103721], "crs": "4326"}}, {"type": "Feature", "id": "http://hadrianswall.squirrel.link/data/site/3", "name": "Milefortlet 3 (Pasture House) (3)", "dateprops": [], "properties": {}, "geometry": {"type": "Point", "coordinates": [-3.271640405672733, 54.932722438144765], "crs": "4326"}}, {"type": "Feature", "id": "http://hadrianswall.squirrel.link/data/site/9", "name": "Milefortlet 5 (Cardurnock) (9)", "dateprops": [], "properties": {}, "geometry": {"type": "Point", "coordinates": [-3.295459867020468, 54.91344454969002], "crs": "4326"}}, {"type": "Feature", "id": "http://hadrianswall.squirrel.link/data/site/24", "name": "Milefortlet 23 (Sea Brows) (24)", "dateprops": [], "properties": {}, "geometry": {"type": "Point", "coordinates": [-3.484765844561137, 54.727840147975705], "crs": "4326"}}, {"type": "Feature", "id": "http://hadrianswall.squirrel.link/data/site/10", "name": "Milefortlet 9 (Skinburness) (10)", "dateprops": [], "properties": {}, "geometry": {"type": "Point", "coordinates": [-3.359131552838045, 54.892378165383604], "crs": "4326"}}, {"type": "Feature", "id": "http://hadrianswall.squirrel.link/data/site/5", "name": "Tower 3b (Herd Hill North) (5)", "dateprops": [], "properties": {}, "geometry": {"type": "Point", "coordinates": [-3.28680908637216, 54.930721953935866], "crs": "4326"}}, {"type": "Feature", "id": "http://hadrianswall.squirrel.link/data/site/4", "name": "Tower 3a (Pasture House West) (4)", "dateprops": [], "properties": {}, "geometry": {"type": "Point", "coordinates": [-3.279196477011767, 54.931450740208405], "crs": "4326"}}, {"type": "Feature", "id": "http://hadrianswall.squirrel.link/data/site/19", "name": "Milefortlet 20 (Low Mire) (19)", "dateprops": [], "properties": {}, "geometry": {"type": "Point", "coordinates": [-3.436171928922824, 54.75653619430856], "crs": "4326"}}, {"type": "Feature", "id": "http://hadrianswall.squirrel.link/data/site/23", "name": "Milefortlet 22 (Brownrigg) (23)", "dateprops": [], "properties": {}, "geometry": {"type": "Point", "coordinates": [-3.466011332567504, 54.73621958683668], "crs": "4326"}}, {"type": "Feature", "id": "http://hadrianswall.squirrel.link/data/site/7", "name": "Tower 4a (Pow Drain) (7)", "dateprops": [], "properties": {}, "geometry": {"type": "Point", "coordinates": [-3.291887714876534, 54.922599330402086], "crs": "4326"}}, {"type": "Feature", "id": "http://hadrianswall.squirrel.link/data/site/8", "name": "Tower 4b (Cardurnock) (8)", "dateprops": [], "properties": {}, "geometry": {"type": "Point", "coordinates": [-3.294656844689803, 54.91717334395552], "crs": "4326"}}, {"type": "Feature", "id": "http://hadrianswall.squirrel.link/data/site/16", "name": "Tower 16b (Mawbray Sandpit) (16)", "dateprops": [], "properties": {}, "geometry": {"type": "Point", "coordinates": [-3.435228837480985, 54.80132790484618], "crs": "4326"}}, {"type": "Feature", "id": "http://hadrianswall.squirrel.link/data/site/14", "name": "Tower 13a (Wolsty North) (14)", "dateprops": [], "properties": {}, "geometry": {"type": "Point", "coordinates": [-3.405655497680892, 54.84261458798103], "crs": "4326"}}, {"type": "Feature", "id": "http://hadrianswall.squirrel.link/data/site/27", "name": "Milefortlet 16 (Mawbray) (27)", "dateprops": [], "properties": {}, "geometry": {"type": "Point", "coordinates": [-3.428301553283844, 54.80962466010641], "crs": "4326"}}, {"type": "Feature", "id": "http://hadrianswall.squirrel.link/data/site/28", "name": "Tower 25b (Fothergill) (28)", "dateprops": [], "properties": {}, "geometry": {"type": "Point", "coordinates": [-3.513533870764065, 54.69615691272743], "crs": "4326"}}, {"type": "Feature", "id": "http://hadrianswall.squirrel.link/data/site/1", "name": "Milefortlet 1 (Biglands House) (1)", "dateprops": [], "properties": {}, "geometry": {"type": "Point", "coordinates": [-3.237203759832432, 54.94532711412995], "crs": "4326"}}, {"type": "Feature", "id": "http://hadrianswall.squirrel.link/data/site/21", "name": "Milefortlet 21 (Swarthy Hill) (21)", "dateprops": [], "properties": {}, "geometry": {"type": "Point", "coordinates": [-3.450468463591313, 54.746540357295615], "crs": "4326"}}, {"type": "Feature", "id": "http://hadrianswall.squirrel.link/data/site/26", "name": "Tower 16A (Cote Howe) (26)", "dateprops": [], "properties": {}, "geometry": {"type": "Point", "coordinates": [-3.430909996534278, 54.805345211811904], "crs": "4326"}}, {"type": "Feature", "id": "http://hadrianswall.squirrel.link/data/site/17", "name": "Milefortlet 17 (Dubmill Point) (17)", "dateprops": [], "properties": {}, "geometry": {"type": "Point", "coordinates": [-3.436895029841435, 54.79707023168006], "crs": "4326"}}], "numberMatched": 28, "numberReturned": 28, "bbox": [-3.513533870764065, 54.69615691272743, -3.237203759832432, 54.94532711412995], "crs": "http://www.opengis.net/def/crs/EPSG/0/4326"}