{"type": "FeatureCollection", "id": "http://hadrianswall.squirrel.link/data/Support_Fort_collection", "name": "Support_Fort Instances Collection", "features": [{"type": "Feature", "id": "http://hadrianswall.squirrel.link/data/fort/39", "name": "Brougham (39)", "dateprops": [], "properties": {}, "geometry": {"type": "Point", "coordinates": [-2.717255870532204, 54.65298057188774], "crs": "4326"}}, {"type": "Feature", "id": "http://hadrianswall.squirrel.link/data/fort/26", "name": "Ebchester (26)", "dateprops": [], "properties": {}, "geometry": {"type": "Point", "coordinates": [-1.842745004717513, 54.89507640901551], "crs": "4326"}}, {"type": "Feature", "id": "http://hadrianswall.squirrel.link/data/fort/31", "name": "Old Penrith (31)", "dateprops": [], "properties": {}, "geometry": {"type": "Point", "coordinates": [-2.789777863709645, 54.73862023161122], "crs": "4326"}}, {"type": "Feature", "id": "http://hadrianswall.squirrel.link/data/fort/37", "name": "Whitley Castle (37)", "dateprops": [], "properties": {}, "geometry": {"type": "Point", "coordinates": [-2.476500927652278, 54.8321207616057], "crs": "4326"}}, {"type": "Feature", "id": "http://hadrianswall.squirrel.link/data/fort/28", "name": "Lanchester (28)", "dateprops": [], "properties": {}, "geometry": {"type": "Point", "coordinates": [-1.756628229211067, 54.81644353848889], "crs": "4326"}}, {"type": "Feature", "id": "http://hadrianswall.squirrel.link/data/fort/30", "name": "Papcastle (30)", "dateprops": [], "properties": {}, "geometry": {"type": "Point", "coordinates": [-3.383140378486306, 54.67143922854185], "crs": "4326"}}, {"type": "Feature", "id": "http://hadrianswall.squirrel.link/data/fort/29", "name": "Old Carlisle (29)", "dateprops": [], "properties": {}, "geometry": {"type": "Point", "coordinates": [-3.154392041319277, 54.80745852883132], "crs": "4326"}}, {"type": "Feature", "id": "http://hadrianswall.squirrel.link/data/fort/38", "name": "Binchester (38)", "dateprops": [], "properties": {}, "geometry": {"type": "Point", "coordinates": [-1.676148829071947, 54.67676258383526], "crs": "4326"}}, {"type": "Feature", "id": "http://hadrianswall.squirrel.link/data/fort/40", "name": "Kirkby Thore (40)", "dateprops": [], "properties": {}, "geometry": {"type": "Point", "coordinates": [-2.562178265673341, 54.62423314229871], "crs": "4326"}}, {"type": "Feature", "id": "http://hadrianswall.squirrel.link/data/fort/27", "name": "Chester-le-Street (27)", "dateprops": [], "properties": {}, "geometry": {"type": "Point", "coordinates": [-1.573175751686112, 54.85584322150056], "crs": "4326"}}], "numberMatched": 10, "numberReturned": 10, "bbox": [-3.383140378486306, 54.62423314229871, -1.573175751686112, 54.89507640901551], "crs": "http://www.opengis.net/def/crs/EPSG/0/4326"}