{
"type": "FeatureCollection",
"name": "forts_hw",
"crs": { "type": "name", "properties": { "name": "urn:ogc:def:crs:OGC:1.3:CRS84" } },
"features": [
{ "type": "Feature", "properties": { "OBJECTID": 1, "name": "South Shields", "fort_type": "Hadrian's Wall", "POINT_X": 436484.4758, "POINT_Y": 567897.4927, "latin_name": "Arbeia" }, "geometry": { "type": "Point", "coordinates": [ -1.431135272387607, 55.004314128068124 ] } },
{ "type": "Feature", "properties": { "OBJECTID": 2, "name": "Wallsend", "fort_type": "Hadrian's Wall", "POINT_X": 430026.5129, "POINT_Y": 566017.889, "latin_name": "Segedunum" }, "geometry": { "type": "Point", "coordinates": [ -1.532291202964515, 54.987854166264 ] } },
{ "type": "Feature", "properties": { "OBJECTID": 3, "name": "Newcastle", "fort_type": "Hadrian's Wall", "POINT_X": 425041.7529, "POINT_Y": 563858.8846, "latin_name": "Pons Aelius" }, "geometry": { "type": "Point", "coordinates": [ -1.610376403695749, 54.968727772384909 ] } },
{ "type": "Feature", "properties": { "OBJECTID": 4, "name": "Benwell", "fort_type": "Hadrian's Wall", "POINT_X": 421598.9656, "POINT_Y": 564758.4367, "latin_name": "Condercum" }, "geometry": { "type": "Point", "coordinates": [ -1.66408462617604, 54.9769714478022 ] } },
{ "type": "Feature", "properties": { "OBJECTID": 5, "name": "Rudchester", "fort_type": "Hadrian's Wall", "POINT_X": 411263.7645, "POINT_Y": 567527.1425, "latin_name": "Vindobala" }, "geometry": { "type": "Point", "coordinates": [ -1.82544563922685, 55.002189781256355 ] } },
{ "type": "Feature", "properties": { "OBJECTID": 6, "name": "Halton Chesters", "fort_type": "Hadrian's Wall", "POINT_X": 399741.2034, "POINT_Y": 568465.1915, "latin_name": "Onnum" }, "geometry": { "type": "Point", "coordinates": [ -2.005580016388115, 55.010743913031455 ] } },
{ "type": "Feature", "properties": { "OBJECTID": 7, "name": "Carrawburgh", "fort_type": "Hadrian's Wall", "POINT_X": 385912.2392, "POINT_Y": 571192.6807, "latin_name": "Brocolitia" }, "geometry": { "type": "Point", "coordinates": [ -2.221949835363226, 55.035050783104168 ] } },
{ "type": "Feature", "properties": { "OBJECTID": 8, "name": "Chesters", "fort_type": "Hadrian's Wall", "POINT_X": 391171.6584, "POINT_Y": 570162.497, "latin_name": "Cilurnum" }, "geometry": { "type": "Point", "coordinates": [ -2.139629712870049, 55.025915866270012 ] } },
{ "type": "Feature", "properties": { "OBJECTID": 9, "name": "Housesteads", "fort_type": "Hadrian's Wall", "POINT_X": 378967.7066, "POINT_Y": 568796.3447, "latin_name": "Vercovicium" }, "geometry": { "type": "Point", "coordinates": [ -2.330424146096202, 55.013270555987141 ] } },
{ "type": "Feature", "properties": { "OBJECTID": 10, "name": "Great Chesters", "fort_type": "Hadrian's Wall", "POINT_X": 370375.3457, "POINT_Y": 566796.0907, "latin_name": "Aescia" }, "geometry": { "type": "Point", "coordinates": [ -2.464574348573922, 54.994857302394543 ] } },
{ "type": "Feature", "properties": { "OBJECTID": 11, "name": "Carvoran", "fort_type": "Stanegate", "POINT_X": 366556.5186, "POINT_Y": 565710.7677, "latin_name": "Magna" }, "geometry": { "type": "Point", "coordinates": [ -2.524133898805547, 54.984862133876398 ] } },
{ "type": "Feature", "properties": { "OBJECTID": 12, "name": "Birdoswald", "fort_type": "Stanegate", "POINT_X": 361552.444, "POINT_Y": 566255.5459, "latin_name": "Banna" }, "geometry": { "type": "Point", "coordinates": [ -2.602398467112608, 54.989395142687385 ] } },
{ "type": "Feature", "properties": { "OBJECTID": 13, "name": "Castlesteads", "fort_type": "Hadrian's Wall", "POINT_X": 351216.8105, "POINT_Y": 563488.5631, "latin_name": "Camboglanna" }, "geometry": { "type": "Point", "coordinates": [ -2.76343949821844, 54.963625382499444 ] } },
{ "type": "Feature", "properties": { "OBJECTID": 14, "name": "Brampton Old Church", "fort_type": "Stanegate", "POINT_X": 350957.5184, "POINT_Y": 561493.6008, "latin_name": "-" }, "geometry": { "type": "Point", "coordinates": [ -2.767147137967068, 54.945674322674044 ] } },
{ "type": "Feature", "properties": { "OBJECTID": 15, "name": "Stanwix", "fort_type": "Hadrian's Wall", "POINT_X": 340174.7558, "POINT_Y": 557073.2864, "latin_name": "Uxelodunum\/Petriana" }, "geometry": { "type": "Point", "coordinates": [ -2.934535943837438, 54.904778645263825 ] } },
{ "type": "Feature", "properties": { "OBJECTID": 16, "name": "Burgh-by-Sands", "fort_type": "Hadrian's Wall", "POINT_X": 332848.5317, "POINT_Y": 559131.7395, "latin_name": "Aballava" }, "geometry": { "type": "Point", "coordinates": [ -3.049253373397388, 54.922340889532038 ] } },
{ "type": "Feature", "properties": { "OBJECTID": 17, "name": "Drumburgh", "fort_type": "Hadrian's Wall", "POINT_X": 326470.8259, "POINT_Y": 559873.7208, "latin_name": "Congabata" }, "geometry": { "type": "Point", "coordinates": [ -3.148929565215852, 54.92810739524144 ] } },
{ "type": "Feature", "properties": { "OBJECTID": 18, "name": "Bowness-on-Solway", "fort_type": "Hadrian's Wall", "POINT_X": 322247.2572, "POINT_Y": 562691.4728, "latin_name": "Maia" }, "geometry": { "type": "Point", "coordinates": [ -3.215584657725321, 54.952781853897292 ] } },
{ "type": "Feature", "properties": { "OBJECTID": 19, "name": "Beckfoot", "fort_type": "Cumbrian Coast", "POINT_X": 308975.2747, "POINT_Y": 548842.6966, "latin_name": "Bibra (?)" }, "geometry": { "type": "Point", "coordinates": [ -3.418372255848432, 54.826122347771566 ] } },
{ "type": "Feature", "properties": { "OBJECTID": 20, "name": "Burrow Walls", "fort_type": "Cumbrian Coast", "POINT_X": 300383.3327, "POINT_Y": 530077.5491, "latin_name": "-" }, "geometry": { "type": "Point", "coordinates": [ -3.545624293295767, 54.655914167630158 ] } },
{ "type": "Feature", "properties": { "OBJECTID": 21, "name": "Maryport", "fort_type": "Cumbrian Coast", "POINT_X": 303872.4221, "POINT_Y": 537231.7865, "latin_name": "Alauna" }, "geometry": { "type": "Point", "coordinates": [ -3.493922018751928, 54.720862647857572 ] } },
{ "type": "Feature", "properties": { "OBJECTID": 22, "name": "Moresby", "fort_type": "Cumbrian Coast", "POINT_X": 298229.253, "POINT_Y": 521028.6409, "latin_name": "Gabrosentum (?)" }, "geometry": { "type": "Point", "coordinates": [ -3.575854528224965, 54.574194363031175 ] } },
{ "type": "Feature", "properties": { "OBJECTID": 23, "name": "Carlisle", "fort_type": "Stanegate", "POINT_X": 339717.4045, "POINT_Y": 556140.8551, "latin_name": "Luguvalium" }, "geometry": { "type": "Point", "coordinates": [ -2.941471979419617, 54.896345598395783 ] } },
{ "type": "Feature", "properties": { "OBJECTID": 24, "name": "Vindolanda", "fort_type": "Stanegate", "POINT_X": 377051.2531, "POINT_Y": 566353.6123, "latin_name": "Vindolanda" }, "geometry": { "type": "Point", "coordinates": [ -2.360195034072698, 54.991235106975971 ] } },
{ "type": "Feature", "properties": { "OBJECTID": 25, "name": "Corbridge", "fort_type": "Stanegate", "POINT_X": 398235.7774, "POINT_Y": 564836.0254, "latin_name": "Corstopium" }, "geometry": { "type": "Point", "coordinates": [ -2.029095642110599, 54.978128234347402 ] } },
{ "type": "Feature", "properties": { "OBJECTID": 26, "name": "Ebchester", "fort_type": "Support Fort", "POINT_X": 410183.9157, "POINT_Y": 555604.8149, "latin_name": "Vindomora" }, "geometry": { "type": "Point", "coordinates": [ -1.842745004717513, 54.895076409015509 ] } },
{ "type": "Feature", "properties": { "OBJECTID": 27, "name": "Chester-le-Street", "fort_type": "Support Fort", "POINT_X": 427499.8519, "POINT_Y": 551311.0169, "latin_name": "Concangis" }, "geometry": { "type": "Point", "coordinates": [ -1.573175751686112, 54.855843221500557 ] } },
{ "type": "Feature", "properties": { "OBJECTID": 28, "name": "Lanchester", "fort_type": "Support Fort", "POINT_X": 415737.5576, "POINT_Y": 546870.38, "latin_name": "Longovicum" }, "geometry": { "type": "Point", "coordinates": [ -1.756628229211067, 54.81644353848889 ] } },
{ "type": "Feature", "properties": { "OBJECTID": 29, "name": "Old Carlisle", "fort_type": "Support Fort", "POINT_X": 325899.5002, "POINT_Y": 546454.6096, "latin_name": "Maglona" }, "geometry": { "type": "Point", "coordinates": [ -3.154392041319277, 54.807458528831319 ] } },
{ "type": "Feature", "properties": { "OBJECTID": 30, "name": "Papcastle", "fort_type": "Support Fort", "POINT_X": 310899.1575, "POINT_Y": 531586.3432, "latin_name": "Derventio" }, "geometry": { "type": "Point", "coordinates": [ -3.383140378486306, 54.67143922854185 ] } },
{ "type": "Feature", "properties": { "OBJECTID": 31, "name": "Old Penrith", "fort_type": "Support Fort", "POINT_X": 349248.1576, "POINT_Y": 538469.6114000001, "latin_name": "Voreda" }, "geometry": { "type": "Point", "coordinates": [ -2.789777863709645, 54.738620231611222 ] } },
{ "type": "Feature", "properties": { "OBJECTID": 32, "name": "Risingham", "fort_type": "Outpost Fort", "POINT_X": 389030.0, "POINT_Y": 586210.0, "latin_name": "Habitancum" }, "geometry": { "type": "Point", "coordinates": [ -2.173755301213373, 55.170075091556775 ] } },
{ "type": "Feature", "properties": { "OBJECTID": 33, "name": "Bewcastle", "fort_type": "Outpost Fort", "POINT_X": 356550.0, "POINT_Y": 574600.0, "latin_name": "Fanum Cocidi (?)" }, "geometry": { "type": "Point", "coordinates": [ -2.681843961147661, 55.063961680884461 ] } },
{ "type": "Feature", "properties": { "OBJECTID": 34, "name": "Netherby", "fort_type": "Outpost Fort", "POINT_X": 339600.0, "POINT_Y": 571600.0, "latin_name": "Castra Exploratum" }, "geometry": { "type": "Point", "coordinates": [ -2.946563661891952, 55.035231530182251 ] } },
{ "type": "Feature", "properties": { "OBJECTID": 35, "name": "High Rochester", "fort_type": "Outpost Fort", "POINT_X": 383200.0, "POINT_Y": 598600.0, "latin_name": "Bremenium" }, "geometry": { "type": "Point", "coordinates": [ -2.266020352835056, 55.281243242789891 ] } },
{ "type": "Feature", "properties": { "OBJECTID": 36, "name": "Birrens", "fort_type": "Outpost Fort", "POINT_X": 321900.0, "POINT_Y": 575190.0, "latin_name": "Blatobulgium" }, "geometry": { "type": "Point", "coordinates": [ -3.224422491138571, 55.06501545059966 ] } },
{ "type": "Feature", "properties": { "OBJECTID": 37, "name": "Whitley Castle", "fort_type": "Support Fort", "POINT_X": 369489.0, "POINT_Y": 548692.0, "latin_name": "Epiacum" }, "geometry": { "type": "Point", "coordinates": [ -2.476500927652278, 54.832120761605701 ] } },
{ "type": "Feature", "properties": { "OBJECTID": 38, "name": "Binchester", "fort_type": "Support Fort", "POINT_X": 420981.0, "POINT_Y": 531348.0, "latin_name": "Vinovia" }, "geometry": { "type": "Point", "coordinates": [ -1.676148829071947, 54.676762583835263 ] } },
{ "type": "Feature", "properties": { "OBJECTID": 39, "name": "Brougham", "fort_type": "Support Fort", "POINT_X": 353820.0, "POINT_Y": 528890.0, "latin_name": "Brocavum" }, "geometry": { "type": "Point", "coordinates": [ -2.717255870532204, 54.652980571887738 ] } },
{ "type": "Feature", "properties": { "OBJECTID": 40, "name": "Kirkby Thore", "fort_type": "Support Fort", "POINT_X": 363800.0, "POINT_Y": 525600.0, "latin_name": "Bravoniacum" }, "geometry": { "type": "Point", "coordinates": [ -2.562178265673341, 54.624233142298714 ] } }
]
}
